{
"type": "FeatureCollection",
"name": "hisar_plotted",
"crs": { "type": "name", "properties": { "name": "urn:ogc:def:crs:OGC:1.3:CRS84" } },
"features": [
{ "type": "Feature", "properties": { "Location": "Adampur", "Latitude": 29.2901, "Longitude": 75.4679, "pH": 7.88 }, "geometry": { "type": "Point", "coordinates": [ 75.4679, 29.2901 ] } },
{ "type": "Feature", "properties": { "Location": "Bagla", "Latitude": 29.1923, "Longitude": 75.4739, "pH": 7.85 }, "geometry": { "type": "Point", "coordinates": [ 75.4739, 29.1923 ] } },
{ "type": "Feature", "properties": { "Location": "Ghursal", "Latitude": 29.1738, "Longitude": 75.4245, "pH": 7.83 }, "geometry": { "type": "Point", "coordinates": [ 75.4245, 29.1738 ] } },
{ "type": "Feature", "properties": { "Location": "Asrawan", "Latitude": 29.2773, "Longitude": 75.6002, "pH": 7.59 }, "geometry": { "type": "Point", "coordinates": [ 75.6002, 29.2773 ] } },
{ "type": "Feature", "properties": { "Location": "Kirori", "Latitude": 29.3445, "Longitude": 75.776, "pH": 7.41 }, "geometry": { "type": "Point", "coordinates": [ 75.776, 29.3445 ] } },
{ "type": "Feature", "properties": { "Location": "Nangthala", "Latitude": 29.3283, "Longitude": 75.7051, "pH": 7.73 }, "geometry": { "type": "Point", "coordinates": [ 75.7051, 29.3283 ] } },
{ "type": "Feature", "properties": { "Location": "Siwani Bolan", "Latitude": 29.4083, "Longitude": 75.6833, "pH": 7.79 }, "geometry": { "type": "Point", "coordinates": [ 75.6833, 29.4083 ] } },
{ "type": "Feature", "properties": { "Location": "Agroha", "Latitude": 29.3332, "Longitude": 75.6275, "pH": 7.73 }, "geometry": { "type": "Point", "coordinates": [ 75.6275, 29.3332 ] } },
{ "type": "Feature", "properties": { "Location": "Kanoh", "Latitude": 29.3854, "Longitude": 75.7635, "pH": 7.37 }, "geometry": { "type": "Point", "coordinates": [ 75.7635, 29.3854 ] } },
{ "type": "Feature", "properties": { "Location": "Banbhauri", "Latitude": 29.4105, "Longitude": 76.0519, "pH": 7.37 }, "geometry": { "type": "Point", "coordinates": [ 76.0519, 29.4105 ] } },
{ "type": "Feature", "properties": { "Location": "Barwala", "Latitude": 29.3564, "Longitude": 75.9089, "pH": 7.97 }, "geometry": { "type": "Point", "coordinates": [ 75.9089, 29.3564 ] } },
{ "type": "Feature", "properties": { "Location": "Behbalpur", "Latitude": 29.2833, "Longitude": 75.7894, "pH": 7.44 }, "geometry": { "type": "Point", "coordinates": [ 75.7894, 29.2833 ] } },
{ "type": "Feature", "properties": { "Location": "Gianpura", "Latitude": 29.3441, "Longitude": 76.0227, "pH": 7.58 }, "geometry": { "type": "Point", "coordinates": [ 76.0227, 29.3441 ] } },
{ "type": "Feature", "properties": { "Location": "Juglan", "Latitude": 29.2598, "Longitude": 75.7911, "pH": 7.95 }, "geometry": { "type": "Point", "coordinates": [ 75.7911, 29.2598 ] } },
{ "type": "Feature", "properties": { "Location": "Litani", "Latitude": 29.4787, "Longitude": 75.9786, "pH": 8.08 }, "geometry": { "type": "Point", "coordinates": [ 75.9786, 29.4787 ] } },
{ "type": "Feature", "properties": { "Location": "Thurana", "Latitude": 29.1467, "Longitude": 76.1124, "pH": 8.05 }, "geometry": { "type": "Point", "coordinates": [ 76.1124, 29.1467 ] } },
{ "type": "Feature", "properties": { "Location": "Singhwa Khas", "Latitude": 29.0189, "Longitude": 76.2268, "pH": 8.04 }, "geometry": { "type": "Point", "coordinates": [ 76.2268, 29.0189 ] } },
{ "type": "Feature", "properties": { "Location": "Chanaut", "Latitude": 29.2083, "Longitude": 75.9208, "pH": 7.41 }, "geometry": { "type": "Point", "coordinates": [ 75.9208, 29.2083 ] } },
{ "type": "Feature", "properties": { "Location": "Khanda Kheri", "Latitude": 29.194, "Longitude": 76.2116, "pH": 8.02 }, "geometry": { "type": "Point", "coordinates": [ 76.2116, 29.194 ] } },
{ "type": "Feature", "properties": { "Location": "Rajali Cross", "Latitude": 29.2904, "Longitude": 75.9103, "pH": 7.9 }, "geometry": { "type": "Point", "coordinates": [ 75.9103, 29.2904 ] } },
{ "type": "Feature", "properties": { "Location": "Sorkhi", "Latitude": 29.0503, "Longitude": 76.1241, "pH": 7.93 }, "geometry": { "type": "Point", "coordinates": [ 76.1241, 29.0503 ] } },
{ "type": "Feature", "properties": { "Location": "Umra", "Latitude": 29.0554, "Longitude": 75.9131, "pH": 7.83 }, "geometry": { "type": "Point", "coordinates": [ 75.9131, 29.0554 ] } },
{ "type": "Feature", "properties": { "Location": "Bir Hansi (Bir Farm)", "Latitude": 29.1433, "Longitude": 75.9778, "pH": 7.74 }, "geometry": { "type": "Point", "coordinates": [ 75.9778, 29.1433 ] } },
{ "type": "Feature", "properties": { "Location": "Datta", "Latitude": 29.2675, "Longitude": 75.494, "pH": 7.86 }, "geometry": { "type": "Point", "coordinates": [ 75.494, 29.2675 ] } },
{ "type": "Feature", "properties": { "Location": "Kirtan", "Latitude": 29.1395, "Longitude": 75.5569, "pH": 7.42 }, "geometry": { "type": "Point", "coordinates": [ 75.5569, 29.1395 ] } },
{ "type": "Feature", "properties": { "Location": "Rampur Damundi", "Latitude": 29.4268, "Longitude": 75.7876, "pH": 7.88 }, "geometry": { "type": "Point", "coordinates": [ 75.7876, 29.4268 ] } },
{ "type": "Feature", "properties": { "Location": "Balawas", "Latitude": 28.9583, "Longitude": 75.8222, "pH": 7.59 }, "geometry": { "type": "Point", "coordinates": [ 75.8222, 28.9583 ] } },
{ "type": "Feature", "properties": { "Location": "Daya / Badon Rangraon", "Latitude": 29.0081, "Longitude": 75.7415, "pH": 7.93 }, "geometry": { "type": "Point", "coordinates": [ 75.7415, 29.0081 ] } },
{ "type": "Feature", "properties": { "Location": "Dobeta", "Latitude": 28.95, "Longitude": 75.7776, "pH": 7.69 }, "geometry": { "type": "Point", "coordinates": [ 75.7776, 28.95 ] } },
{ "type": "Feature", "properties": { "Location": "Kharkari", "Latitude": 29.2032, "Longitude": 75.8713, "pH": 7.72 }, "geometry": { "type": "Point", "coordinates": [ 75.8713, 29.2032 ] } },
{ "type": "Feature", "properties": { "Location": "Kuleri", "Latitude": 29.3605, "Longitude": 75.6602, "pH": 7.59 }, "geometry": { "type": "Point", "coordinates": [ 75.6602, 29.3605 ] } },
{ "type": "Feature", "properties": { "Location": "Raipur", "Latitude": 29.1423, "Longitude": 75.8235, "pH": 8.04 }, "geometry": { "type": "Point", "coordinates": [ 75.8235, 29.1423 ] } },
{ "type": "Feature", "properties": { "Location": "Saharwa", "Latitude": 28.9229, "Longitude": 75.7379, "pH": 7.58 }, "geometry": { "type": "Point", "coordinates": [ 75.7379, 28.9229 ] } },
{ "type": "Feature", "properties": { "Location": "Basra", "Latitude": 29.2167, "Longitude": 75.525, "pH": 7.63 }, "geometry": { "type": "Point", "coordinates": [ 75.525, 29.2167 ] } },
{ "type": "Feature", "properties": { "Location": "Bherian", "Latitude": 29.048, "Longitude": 75.6602, "pH": 7.88 }, "geometry": { "type": "Point", "coordinates": [ 75.6602, 29.048 ] } },
{ "type": "Feature", "properties": { "Location": "Bir Hisar (Bir Babran)", "Latitude": 29.2544, "Longitude": 75.7478, "pH": 8.24 }, "geometry": { "type": "Point", "coordinates": [ 75.7478, 29.2544 ] } },
{ "type": "Feature", "properties": { "Location": "Neoli Kalan", "Latitude": 29.182, "Longitude": 75.6257, "pH": 7.93 }, "geometry": { "type": "Point", "coordinates": [ 75.6257, 29.182 ] } },
{ "type": "Feature", "properties": { "Location": "Dhansu", "Latitude": 29.2156, "Longitude": 75.7956, "pH": 7.1 }, "geometry": { "type": "Point", "coordinates": [ 75.7956, 29.2156 ] } },
{ "type": "Feature", "properties": { "Location": "Hisar", "Latitude": 29.1542, "Longitude": 75.7167, "pH": 7.73 }, "geometry": { "type": "Point", "coordinates": [ 75.7167, 29.1542 ] } },
{ "type": "Feature", "properties": { "Location": "Kharar-Alipur", "Latitude": 29.1542, "Longitude": 75.717, "pH": 7.93 }, "geometry": { "type": "Point", "coordinates": [ 75.717, 29.1542 ] } },
{ "type": "Feature", "properties": { "Location": "Mangali", "Latitude": 29.0369, "Longitude": 75.7392, "pH": 7.79 }, "geometry": { "type": "Point", "coordinates": [ 75.7392, 29.0369 ] } },
{ "type": "Feature", "properties": { "Location": "Mirka", "Latitude": 29.0781, "Longitude": 75.7593, "pH": 7.96 }, "geometry": { "type": "Point", "coordinates": [ 75.7593, 29.0781 ] } },
{ "type": "Feature", "properties": { "Location": "Balasmand", "Latitude": 29.0719, "Longitude": 75.4916, "pH": 7.45 }, "geometry": { "type": "Point", "coordinates": [ 75.4916, 29.0719 ] } },
{ "type": "Feature", "properties": { "Location": "Chaudhary Was", "Latitude": 29.0117, "Longitude": 75.6058, "pH": 7.93 }, "geometry": { "type": "Point", "coordinates": [ 75.6058, 29.0117 ] } },
{ "type": "Feature", "properties": { "Location": "Kheri Jalab", "Latitude": 29.3309, "Longitude": 76.0842, "pH": 7.76 }, "geometry": { "type": "Point", "coordinates": [ 76.0842, 29.3309 ] } },
{ "type": "Feature", "properties": { "Location": "Khotkalan", "Latitude": 29.3875, "Longitude": 76.175, "pH": 7.39 }, "geometry": { "type": "Point", "coordinates": [ 76.175, 29.3875 ] } },
{ "type": "Feature", "properties": { "Location": "Moth Majra", "Latitude": 29.2055, "Longitude": 76.0975, "pH": 8.05 }, "geometry": { "type": "Point", "coordinates": [ 76.0975, 29.2055 ] } },
{ "type": "Feature", "properties": { "Location": "Narnaund", "Latitude": 29.2147, "Longitude": 76.1275, "pH": 7.92 }, "geometry": { "type": "Point", "coordinates": [ 76.1275, 29.2147 ] } },
{ "type": "Feature", "properties": { "Location": "Rajthal", "Latitude": 29.256, "Longitude": 76.1911, "pH": 8.01 }, "geometry": { "type": "Point", "coordinates": [ 76.1911, 29.256 ] } },
{ "type": "Feature", "properties": { "Location": "Kapro", "Latitude": 29.3309, "Longitude": 76.084, "pH": 7.66 }, "geometry": { "type": "Point", "coordinates": [ 76.084, 29.3309 ] } },
{ "type": "Feature", "properties": { "Location": "Kheri Roj", "Latitude": 29.2566, "Longitude": 75.4228, "pH": 7.93 }, "geometry": { "type": "Point", "coordinates": [ 75.4228, 29.2566 ] } },
{ "type": "Feature", "properties": { "Location": "Kinnar", "Latitude": 29.3339, "Longitude": 76.1315, "pH": 7.8 }, "geometry": { "type": "Point", "coordinates": [ 76.1315, 29.3339 ] } },
{ "type": "Feature", "properties": { "Location": "Lohari Ragho", "Latitude": 29.2553, "Longitude": 76.0553, "pH": 7.71 }, "geometry": { "type": "Point", "coordinates": [ 76.0553, 29.2553 ] } },
{ "type": "Feature", "properties": { "Location": "Sohu", "Latitude": 29.4911, "Longitude": 75.8303, "pH": 7.57 }, "geometry": { "type": "Point", "coordinates": [ 75.8303, 29.4911 ] } },
{ "type": "Feature", "properties": { "Location": "Uklana Mandi", "Latitude": 29.5063, "Longitude": 75.8831, "pH": 7.68 }, "geometry": { "type": "Point", "coordinates": [ 75.8831, 29.5063 ] } }
]
}
